{
  "schema_version": "1.5.1",
  "header": {
    "invoice_number": "IAFO44",
    "currency": "usd",
    "total": 43500,
    "subtotal": 43500,
    "paid": 24600,
    "invoiced_at": 1715810036,
    "mcc": "4121",
    "third_party": null,
    "customer": null,
    "location": null,
    "receipt_asset_id": null,
    "invoice_asset_id": null
  },
  "itemization": {
    "general": null,
    "lodging": null,
    "ecommerce": null,
    "car_rental": null,
    "transit_route": {
      "transit_route_items": [
        {
          "departure_location": {
            "address": {
              "street_address": "350 W 33 St",
              "city": "New York",
              "region": "NY",
              "country": "US",
              "postal_code": "10001",
              "lat": 40.7518924492056,
              "lon": -73.99572743676399,
              "tz": null
            },
            "name": "Moynihan Train Hall at Penn Sta.",
            "phone": null,
            "url": null,
            "google_place_id": null,
            "image": null
          },
          "arrival_location": {
            "address": {
              "street_address": "700 Atlantic Ave",
              "city": "Boston",
              "region": "MA",
              "country": "US",
              "postal_code": "02110",
              "lat": 42.3525213445053,
              "lon": -71.0551130449417,
              "tz": null
            },
            "name": "South Station",
            "phone": null,
            "url": null,
            "google_place_id": null,
            "image": null
          },
          "fare": 14500,
          "mode": "rail",
          "passenger": "Honora Doe",
          "departure_at": 1726854999,
          "arrival_at": 1726867959,
          "polyline": null,
          "taxes": [],
          "metadata": [
            { "key": "Ticket", "value": "1210653562276" },
            { "key": "Class", "value": "Coach" },
            { "key": "Category", "value": "Adult" }
          ],
          "adjustments": []
        },
        {
          "departure_location": {
            "address": {
              "street_address": "350 W 33 St",
              "city": "New York",
              "region": "NY",
              "country": "US",
              "postal_code": "10001",
              "lat": 40.7518924492056,
              "lon": -73.99572743676399,
              "tz": null
            },
            "name": "Moynihan Train Hall at Penn Sta.",
            "phone": null,
            "url": null,
            "google_place_id": null,
            "image": null
          },
          "arrival_location": {
            "address": {
              "street_address": "700 Atlantic Ave",
              "city": "Boston",
              "region": "MA",
              "country": "US",
              "postal_code": "02110",
              "lat": 42.3525213445053,
              "lon": -71.0551130449417,
              "tz": null
            },
            "name": "South Station",
            "phone": null,
            "url": null,
            "google_place_id": null,
            "image": null
          },
          "fare": 14500,
          "mode": "rail",
          "passenger": "Ted Doe",
          "departure_at": 1726854999,
          "arrival_at": 1726867959,
          "polyline": null,
          "taxes": [],
          "metadata": [
            { "key": "Ticket", "value": "1210653562276" },
            { "key": "Class", "value": "Coach" },
            { "key": "Category", "value": "Adult" }
          ],
          "adjustments": []
        },
        {
          "departure_location": {
            "address": {
              "street_address": "350 W 33 St",
              "city": "New York",
              "region": "NY",
              "country": "US",
              "postal_code": "10001",
              "lat": 40.7518924492056,
              "lon": -73.99572743676399,
              "tz": null
            },
            "name": "Moynihan Train Hall at Penn Sta.",
            "phone": null,
            "url": null,
            "google_place_id": null,
            "image": null
          },
          "arrival_location": {
            "address": {
              "street_address": "700 Atlantic Ave",
              "city": "Boston",
              "region": "MA",
              "country": "US",
              "postal_code": "02110",
              "lat": 42.3525213445053,
              "lon": -71.0551130449417,
              "tz": null
            },
            "name": "South Station",
            "phone": null,
            "url": null,
            "google_place_id": null,
            "image": null
          },
          "fare": 7250,
          "mode": "rail",
          "passenger": "Rita Doe",
          "departure_at": 1726854999,
          "arrival_at": 1726867959,
          "polyline": null,
          "taxes": [],
          "metadata": [
            { "key": "Ticket", "value": "1210653562276" },
            { "key": "Class", "value": "Coach" },
            { "key": "Category", "value": "Child" }
          ],
          "adjustments": []
        }
      ],
      "invoice_level_adjustments": [],
      "tip": null
    },
    "subscription": null,
    "flight": null
  },
  "actions": [
    { "name": "Loyalty Program", "url": "https://versa.org" },
    { "name": "Rebook", "url": "https://versa.org" }
  ],
  "payments": []
}
